{
"type": "FeatureCollection",
"name": "BART Station",
"crs": { "type": "name", "properties": { "name": "urn:ogc:def:crs:OGC:1.3:CRS84" } },
"features": [
{ "type": "Feature", "properties": { "Name": "Civic Center\/UN Plaza", "AssetType": "Station", "City": "San Francisco", "FID": 3, "Field_1": "Civic Center\/UN Plaza", "Lat": 37.779389, "Link": "<a target=\"_blank\" href=\"http:\/\/www.bart.gov\/stations\/civc\">http:\/\/www.bart.gov\/stations\/civc<\/a>", "Long": -122.413923, "Name2": "Civic Center\/UN Plaza", "Street": "1150 Market Street" }, "geometry": { "type": "Point", "coordinates": [ -122.413936415216, 37.779393860762902 ] } },
{ "type": "Feature", "properties": { "Name": "Glen Park", "AssetType": "Station", "City": "San Francisco", "FID": 10, "Field_1": "Glen Park", "Lat": 37.733107, "Link": "<a target=\"_blank\" href=\"http:\/\/www.bart.gov\/stations\/glen\">http:\/\/www.bart.gov\/stations\/glen<\/a>", "Long": -122.433777, "Name2": "Glen Park", "Street": "2901 Diamond St" }, "geometry": { "type": "Point", "coordinates": [ -122.433790088383006, 37.733112394519601 ] } },
{ "type": "Feature", "properties": { "Name": "Balboa Park", "AssetType": "Station", "City": "San Francisco", "FID": 16, "Field_1": "Balboa Park", "Lat": 37.721346, "Link": "<a target=\"_blank\" href=\"http:\/\/www.bart.gov\/stations\/balb\">http:\/\/www.bart.gov\/stations\/balb<\/a>", "Long": -122.447574, "Name2": "Balboa Park", "Street": "401 Geneva Ave" }, "geometry": { "type": "Point", "coordinates": [ -122.447587357491997, 37.721350588027498 ] } },
{ "type": "Feature", "properties": { "Name": "16th St\/Mission", "AssetType": "Station", "City": "San Francisco", "FID": 24, "Field_1": "16th St\/Mission", "Lat": 37.765049, "Link": "<a target=\"_blank\" href=\"http:\/\/www.bart.gov\/stations\/16th\">http:\/\/www.bart.gov\/stations\/16th<\/a>", "Long": -122.419695, "Name2": "16th St\/Mission", "Street": "2000 Mission St" }, "geometry": { "type": "Point", "coordinates": [ -122.419708143509993, 37.765054239320797 ] } },
{ "type": "Feature", "properties": { "Name": "24th St\/Mission", "AssetType": "Station", "City": "San Francisco", "FID": 25, "Field_1": "24th St\/Mission", "Lat": 37.752227, "Link": "<a target=\"_blank\" href=\"http:\/\/www.bart.gov\/stations\/24th\">http:\/\/www.bart.gov\/stations\/24th<\/a>", "Long": -122.418455, "Name2": "24th St\/Mission", "Street": "2800 Mission St" }, "geometry": { "type": "Point", "coordinates": [ -122.418467876047004, 37.752231451655703 ] } },
{ "type": "Feature", "properties": { "Name": "Montgomery St", "AssetType": "Station", "City": "San Francisco", "FID": 30, "Field_1": "Montgomery St", "Lat": 37.789445, "Link": "<a target=\"_blank\" href=\"http:\/\/www.bart.gov\/stations\/mont\">http:\/\/www.bart.gov\/stations\/mont<\/a>", "Long": -122.401162, "Name2": "Montgomery St", "Street": "598 Market St" }, "geometry": { "type": "Point", "coordinates": [ -122.401174710597999, 37.7894495203929 ] } },
{ "type": "Feature", "properties": { "Name": "Powell St", "AssetType": "Station", "City": "San Francisco", "FID": 35, "Field_1": "Powell St", "Lat": 37.784866, "Link": "<a target=\"_blank\" href=\"http:\/\/www.bart.gov\/stations\/powl\">http:\/\/www.bart.gov\/stations\/powl<\/a>", "Long": -122.407004, "Name2": "Powell St", "Street": "899 Market St" }, "geometry": { "type": "Point", "coordinates": [ -122.407017658827002, 37.784870896627801 ] } },
{ "type": "Feature", "properties": { "Name": "San Francisco International Airport", "AssetType": "Station", "City": "San Francisco International Airport", "FID": 38, "Field_1": "San Francisco International Airport", "Lat": 37.615993, "Link": "<a target=\"_blank\" href=\"http:\/\/www.bart.gov\/stations\/sfia\">http:\/\/www.bart.gov\/stations\/sfia<\/a>", "Long": -122.392401, "Name2": "San Francisco International Airport", "Street": "497 North Link Rd Concourse H 3rd Level" }, "geometry": { "type": "Point", "coordinates": [ -122.392414075207, 37.615997679626901 ] } },
{ "type": "Feature", "properties": { "Name": "Embarcadero", "AssetType": "Station", "City": "San Francisco", "FID": 39, "Field_1": "Embarcadero", "Lat": 37.792849, "Link": "<a target=\"_blank\" href=\"http:\/\/www.bart.gov\/stations\/embr\">http:\/\/www.bart.gov\/stations\/embr<\/a>", "Long": -122.396888, "Name2": "Embarcadero", "Street": "298 Market St" }, "geometry": { "type": "Point", "coordinates": [ -122.396900994340001, 37.792853913725601 ] } }
]
}
